[
  {
    "title": "So you think you can Karaoke",
    "startDate": "2026-05-01T21:00:00+02:00",
    "url": "https://www.meetup.com/1-immigrants-society/events/314368662/",
    "source": "meetup.com",
    "venue": "Etage Bar",
    "address": "Dragarbrunnsgatan 39, 753 20 Uppsala, Sweden",
    "city": "Uppsala",
    "fetched_at": "2026-05-01T02:29:42.544Z",
    "latitude": 59.858984,
    "longitude": 17.6405754
  },
  {
    "title": "#46 Urban Sketching - Bror Hjorths Hus",
    "startDate": "2026-05-02T13:00:00+02:00",
    "url": "https://www.meetup.com/uppsala-social/events/314085398/",
    "source": "meetup.com",
    "venue": "Bror Hjorths Hus",
    "address": "Norbyvägen 26",
    "city": "Uppsala",
    "fetched_at": "2026-05-01T02:29:42.544Z",
    "latitude": 59.8492776,
    "longitude": 17.6198763
  },
  {
    "title": "Mindful Art Class - Watercolour birds",
    "startDate": "2026-05-03T01:00:00+02:00",
    "url": "https://www.meetup.com/mindful-art-class/events/314397531/",
    "source": "meetup.com",
    "venue": "Inner Art Ateljé",
    "address": "Ulleråkersvägen 34",
    "city": "Uppsala",
    "fetched_at": "2026-05-01T02:29:42.544Z",
    "latitude": 59.8282548,
    "longitude": 17.6463868
  },
  {
    "title": "Sunday Badminton",
    "startDate": "2026-05-03T16:00:00+02:00",
    "url": "https://www.meetup.com/uppsala-social/events/314262650/",
    "source": "meetup.com",
    "venue": "Fyrisfjädern Badmintonklubb",
    "address": "Badmintonstigen 1",
    "city": "Uppsala",
    "fetched_at": "2026-05-01T02:29:42.544Z",
    "latitude": 59.8721729,
    "longitude": 17.6208429
  },
  {
    "title": "Drivhuset Breakfast Club",
    "startDate": "2026-05-06T08:15:00+02:00",
    "url": "https://www.meetup.com/drivhuset-uppsala-entrepreneurship/events/314026547/",
    "source": "meetup.com",
    "venue": "Sidenvävargatan 17",
    "address": "Sidenvävargatan 17",
    "city": "Uppsala",
    "fetched_at": "2026-05-01T02:29:42.544Z",
    "latitude": 59.8565705,
    "longitude": 17.6495256
  },
  {
    "title": "Socratic Cafe @ Kafferummet Storken",
    "startDate": "2026-05-07T18:00:00+02:00",
    "url": "https://www.meetup.com/uppsala-socratic-sessions/events/314335240/",
    "source": "meetup.com",
    "venue": "Kafferummet Storken",
    "address": "Stora Torget 3, 75320 Uppsala",
    "city": "Uppsala",
    "fetched_at": "2026-05-01T02:29:42.544Z",
    "latitude": 59.8582004,
    "longitude": 17.6389802
  },
  {
    "title": "Padel&Buziness",
    "startDate": "2026-05-08T07:00:00+02:00",
    "url": "https://www.meetup.com/friends-of-46elks-uppsala/events/313080296/",
    "source": "meetup.com",
    "venue": "Padel Uppsala - UTK Hallen",
    "address": "Edith Södergrans gata 7",
    "city": "Uppsala",
    "fetched_at": "2026-05-01T02:29:42.544Z",
    "latitude": 59.8836959,
    "longitude": 17.663896
  },
  {
    "title": "Mindful Art Class - Paint and Sip Uppsala cathedral!",
    "startDate": "2026-05-08T19:30:00+02:00",
    "url": "https://www.meetup.com/mindful-art-class/events/314397449/",
    "source": "meetup.com",
    "venue": "Inner Art Ateljé",
    "address": "Ulleråkersvägen 34",
    "city": "Uppsala",
    "fetched_at": "2026-05-01T02:29:42.544Z",
    "latitude": 59.8282548,
    "longitude": 17.6463868
  },
  {
    "title": "Mindful Art Class - Sculpt your own Paint Palette! 🎨🌿✨",
    "startDate": "2026-05-09T11:00:00+02:00",
    "url": "https://www.meetup.com/mindful-art-class/events/314055097/",
    "source": "meetup.com",
    "venue": "Inner Art Ateljé",
    "address": "Ulleråkersvägen 34",
    "city": "Uppsala",
    "fetched_at": "2026-05-01T02:29:42.544Z",
    "latitude": 59.8282548,
    "longitude": 17.6463868
  },
  {
    "title": "#47 Urban Sketching -  Day Trip to Krusenberg Herrgård",
    "startDate": "2026-05-16T11:00:00+02:00",
    "url": "https://www.meetup.com/uppsala-social/events/314088329/",
    "source": "meetup.com",
    "venue": "Uppsala Centralstation",
    "address": "Uppsala Centralstation, läge C4",
    "city": "Uppsala",
    "fetched_at": "2026-05-01T02:29:42.544Z",
    "latitude": 59.8582098,
    "longitude": 17.6465835
  },
  {
    "title": "Svenskasamtal",
    "startDate": "2026-05-16T12:00:00+02:00",
    "url": "https://www.meetup.com/intercambio2/events/313648030/",
    "source": "meetup.com",
    "venue": "Konditori Fågelsången",
    "address": "Munkgatan 3",
    "city": "Uppsala",
    "fetched_at": "2026-05-01T02:29:42.544Z",
    "latitude": 59.8546305,
    "longitude": 17.6394577
  },
  {
    "title": "French Conversation",
    "startDate": "2026-05-16T13:30:00+02:00",
    "url": "https://www.meetup.com/intercambio2/events/314137735/",
    "source": "meetup.com",
    "venue": "Konditori Fågelsången",
    "address": "Munkgatan 3",
    "city": "Uppsala",
    "fetched_at": "2026-05-01T02:29:42.544Z",
    "latitude": 59.8546305,
    "longitude": 17.6394577
  }
]