[
  {
    "title": "Diary writing  (English language)",
    "startDate": "2026-04-07T17:00:00+02:00",
    "url": "https://www.meetup.com/diary-writing-and-accelerating-your-personal-growth/events/314043950/",
    "source": "meetup.com",
    "venue": "Kafferummet Storken",
    "address": "Stora Torget 3, 75320 Uppsala",
    "city": "Uppsala",
    "fetched_at": "2026-04-07T01:54:41.035Z",
    "latitude": 59.8582004,
    "longitude": 17.6389802
  },
  {
    "title": "Socratic Cafe @ Kafferummet Storken",
    "startDate": "2026-04-09T18:00:00+02:00",
    "url": "https://www.meetup.com/uppsala-socratic-sessions/events/313776497/",
    "source": "meetup.com",
    "venue": "Kafferummet Storken",
    "address": "Stora Torget 3, 75320 Uppsala",
    "city": "Uppsala",
    "fetched_at": "2026-04-07T01:54:41.035Z",
    "latitude": 59.8582004,
    "longitude": 17.6389802
  },
  {
    "title": "Mindful Art Class - Charcoal drawing (with guest teacher!)! 🎨🌿✨",
    "startDate": "2026-04-12T13:00:00+02:00",
    "url": "https://www.meetup.com/mindful-art-class/events/313943605/",
    "source": "meetup.com",
    "venue": "Inner Art Ateljé",
    "address": "Ulleråkersvägen 34",
    "city": "Uppsala",
    "fetched_at": "2026-04-07T01:54:41.035Z",
    "latitude": 59.8282548,
    "longitude": 17.6463868
  },
  {
    "title": "Sunday Badminton",
    "startDate": "2026-04-12T16:00:00+02:00",
    "url": "https://www.meetup.com/uppsala-social/events/313911321/",
    "source": "meetup.com",
    "venue": "Fyrisfjädern Badmintonklubb",
    "address": "Badmintonstigen 1",
    "city": "Uppsala",
    "fetched_at": "2026-04-07T01:54:41.035Z",
    "latitude": 59.8721729,
    "longitude": 17.6208429
  },
  {
    "title": "Co-Working dag 👨🏼‍💻👩🏽‍💻",
    "startDate": "2026-04-14T09:00:00+02:00",
    "url": "https://www.meetup.com/friends-of-46elks-uppsala/events/313941833/",
    "source": "meetup.com",
    "venue": "IT-HUSET Uppsala",
    "address": "Vaksalagatan 3",
    "city": "Uppsala",
    "fetched_at": "2026-04-07T01:54:41.035Z",
    "latitude": 59.868543,
    "longitude": 17.6604173
  },
  {
    "title": "Padel&Buziness",
    "startDate": "2026-04-17T07:00:00+02:00",
    "url": "https://www.meetup.com/friends-of-46elks-uppsala/events/313080284/",
    "source": "meetup.com",
    "venue": "Padel Uppsala - UTK Hallen",
    "address": "Edith Södergrans gata 7",
    "city": "Uppsala",
    "fetched_at": "2026-04-07T01:54:41.035Z",
    "latitude": 59.8836959,
    "longitude": 17.663896
  },
  {
    "title": "Mindful Art Class - Soft Pastel Dreamy Landscape ",
    "startDate": "2026-04-18T13:00:00+02:00",
    "url": "https://www.meetup.com/mindful-art-class/events/314055843/",
    "source": "meetup.com",
    "venue": "Inner Art Ateljé",
    "address": "Ulleråkersvägen 34",
    "city": "Uppsala",
    "fetched_at": "2026-04-07T01:54:41.035Z",
    "latitude": 59.8282548,
    "longitude": 17.6463868
  },
  {
    "title": "Mindful Art Class - Sculpt your own Paint Palette! (with guest teacher!)! 🎨🌿✨",
    "startDate": "2026-04-22T16:30:00+02:00",
    "url": "https://www.meetup.com/mindful-art-class/events/314055097/",
    "source": "meetup.com",
    "venue": "Inner Art Ateljé",
    "address": "Ulleråkersvägen 34",
    "city": "Uppsala",
    "fetched_at": "2026-04-07T01:54:41.035Z",
    "latitude": 59.8282548,
    "longitude": 17.6463868
  },
  {
    "title": "#46 Urban Sketching - Bror Hjorths Hus",
    "startDate": "2026-05-02T13:00:00+02:00",
    "url": "https://www.meetup.com/uppsala-social/events/314085398/",
    "source": "meetup.com",
    "venue": "Bror Hjorths Hus",
    "address": "Norbyvägen 26",
    "city": "Uppsala",
    "fetched_at": "2026-04-07T01:54:41.035Z",
    "latitude": 59.8492776,
    "longitude": 17.6198763
  },
  {
    "title": "Drivhuset Breakfast Club",
    "startDate": "2026-05-06T08:15:00+02:00",
    "url": "https://www.meetup.com/drivhuset-uppsala-entrepreneurship/events/314026547/",
    "source": "meetup.com",
    "venue": "Sidenvävargatan 17",
    "address": "Sidenvävargatan 17",
    "city": "Uppsala",
    "fetched_at": "2026-04-07T01:54:41.035Z",
    "latitude": 59.8565705,
    "longitude": 17.6495256
  }
]