[
  {
    "title": "Startup Coffee Uppsala",
    "startDate": "2026-03-06T08:30:00+01:00",
    "url": "https://www.meetup.com/startup-coffee-uppsala/events/313630288/",
    "source": "meetup.com",
    "venue": "Bröd & Salt",
    "address": "Kungsängsgatan 5",
    "city": "Uppsala",
    "fetched_at": "2026-03-05T20:17:24.822Z",
    "latitude": 59.8578928,
    "longitude": 17.6398158
  },
  {
    "title": "Friday afterwork at O'Neill's Irish pub",
    "startDate": "2026-03-06T19:00:00+01:00",
    "url": "https://www.meetup.com/uppsala-social/events/313358481/",
    "source": "meetup.com",
    "venue": "O'Neill's",
    "address": "Dragarbrunnsgatan 53,",
    "city": "Uppsala",
    "fetched_at": "2026-03-05T20:17:24.822Z",
    "latitude": 59.8572528,
    "longitude": 17.6435434
  },
  {
    "title": "Svenskasamtal",
    "startDate": "2026-03-07T12:00:00+01:00",
    "url": "https://www.meetup.com/intercambio2/events/312732085/",
    "source": "meetup.com",
    "venue": "Konditori Fågelsången",
    "address": "Munkgatan 3",
    "city": "Uppsala",
    "fetched_at": "2026-03-05T20:17:24.822Z",
    "latitude": 59.8546305,
    "longitude": 17.6394577
  },
  {
    "title": "French Conversation",
    "startDate": "2026-03-07T13:30:00+01:00",
    "url": "https://www.meetup.com/intercambio2/events/313367401/",
    "source": "meetup.com",
    "venue": "Konditori Fågelsången",
    "address": "Munkgatan 3",
    "city": "Uppsala",
    "fetched_at": "2026-03-05T20:17:24.822Z",
    "latitude": 59.8546305,
    "longitude": 17.6394577
  },
  {
    "title": "Lovable is free this Sunday (March 8th)",
    "startDate": "2026-03-08T08:00:00+01:00",
    "url": "https://www.meetup.com/designers-developers-uppsala/events/313630361/",
    "source": "meetup.com",
    "venue": "Uppsala",
    "address": "",
    "city": "Uppsala",
    "fetched_at": "2026-03-05T20:17:24.822Z",
    "latitude": 59.8586126,
    "longitude": 17.6387436
  },
  {
    "title": "Vibe coding with Alva & lovable (for free!)",
    "startDate": "2026-03-08T11:00:00+01:00",
    "url": "https://www.meetup.com/uppsala-women-coding-beginners-welcome/events/313634157/",
    "source": "meetup.com",
    "venue": "Magasin X",
    "address": "Sidenvävargatan 17",
    "city": "Uppsala",
    "fetched_at": "2026-03-05T20:17:24.822Z",
    "latitude": 59.8487686,
    "longitude": 17.6524889
  },
  {
    "title": "English Conversation",
    "startDate": "2026-03-08T12:00:00+01:00",
    "url": "https://www.meetup.com/intercambio2/events/313381764/",
    "source": "meetup.com",
    "venue": "Konditori Fågelsången",
    "address": "Munkgatan 3",
    "city": "Uppsala",
    "fetched_at": "2026-03-05T20:17:24.822Z",
    "latitude": 59.8546305,
    "longitude": 17.6394577
  },
  {
    "title": "Diary writing  (English language) - 1 year anniversary!",
    "startDate": "2026-03-10T17:00:00+01:00",
    "url": "https://www.meetup.com/diary-writing-and-accelerating-your-personal-growth/events/313510613/",
    "source": "meetup.com",
    "venue": "Kafferummet Storken",
    "address": "Stora Torget 3, 75320 Uppsala",
    "city": "Uppsala",
    "fetched_at": "2026-03-05T20:17:24.822Z",
    "latitude": 59.8582004,
    "longitude": 17.6389802
  },
  {
    "title": "Socratic Cafe @ Kafferummet Storken",
    "startDate": "2026-03-12T18:00:00+01:00",
    "url": "https://www.meetup.com/uppsala-socratic-sessions/events/313448981/",
    "source": "meetup.com",
    "venue": "Kafferummet Storken",
    "address": "Stora Torget 3, 75320 Uppsala",
    "city": "Uppsala",
    "fetched_at": "2026-03-05T20:17:24.822Z",
    "latitude": 59.8582004,
    "longitude": 17.6389802
  },
  {
    "title": "Padel&Buziness",
    "startDate": "2026-03-13T07:00:00+01:00",
    "url": "https://www.meetup.com/friends-of-46elks-uppsala/events/313080242/",
    "source": "meetup.com",
    "venue": "Padel Uppsala - UTK Hallen",
    "address": "Edith Södergrans gata 7",
    "city": "Uppsala",
    "fetched_at": "2026-03-05T20:17:24.822Z",
    "latitude": 59.8836959,
    "longitude": 17.663896
  }
]