[
  {
    "title": "#45 Urban Sketching -  Gamla Uppsala kyrka",
    "startDate": "2026-04-19T10:00:00+02:00",
    "url": "https://www.meetup.com/uppsala-social/events/313727158/",
    "source": "meetup.com",
    "venue": "Gamla Uppsala kyrka",
    "address": "Disavägen 8, 754 40",
    "city": "Uppsala",
    "fetched_at": "2026-04-19T02:07:26.223Z",
    "latitude": 59.8995004,
    "longitude": 17.6319116
  },
  {
    "title": "Sunday Chicken Wings",
    "startDate": "2026-04-19T14:00:00+02:00",
    "url": "https://www.meetup.com/1-immigrants-society/events/314264727/",
    "source": "meetup.com",
    "venue": "Pitchers",
    "address": "Påvel Snickares gränd 1, 753 20 Uppsala",
    "city": "Uppsala",
    "fetched_at": "2026-04-19T02:07:26.223Z",
    "latitude": 59.8594,
    "longitude": 17.6392584
  },
  {
    "title": "Diary writing  (English language)",
    "startDate": "2026-04-21T17:00:00+02:00",
    "url": "https://www.meetup.com/diary-writing-and-accelerating-your-personal-growth/events/314179331/",
    "source": "meetup.com",
    "venue": "Kafferummet Storken",
    "address": "Stora Torget 3, 75320 Uppsala",
    "city": "Uppsala",
    "fetched_at": "2026-04-19T02:07:26.223Z",
    "latitude": 59.8582004,
    "longitude": 17.6389802
  },
  {
    "title": "Agents: From ideas to Deployment",
    "startDate": "2026-04-21T17:30:00+02:00",
    "url": "https://www.meetup.com/uppsala-tech-meetup/events/313818442/",
    "source": "meetup.com",
    "venue": "Omegapoint",
    "address": "Kungsängsgatan 14",
    "city": "Uppsala",
    "fetched_at": "2026-04-19T02:07:26.223Z",
    "latitude": 59.8571282,
    "longitude": 17.6417146
  },
  {
    "title": "Mindful Art Class - Sculpt your own Paint Palette! (with guest teacher!)! 🎨🌿✨",
    "startDate": "2026-04-22T16:30:00+02:00",
    "url": "https://www.meetup.com/mindful-art-class/events/314055097/",
    "source": "meetup.com",
    "venue": "Inner Art Ateljé",
    "address": "Ulleråkersvägen 34",
    "city": "Uppsala",
    "fetched_at": "2026-04-19T02:07:26.223Z",
    "latitude": 59.8282548,
    "longitude": 17.6463868
  },
  {
    "title": "Socratic Cafe @ Kafferummet Storken",
    "startDate": "2026-04-23T18:00:00+02:00",
    "url": "https://www.meetup.com/uppsala-socratic-sessions/events/314313287/",
    "source": "meetup.com",
    "venue": "Kafferummet Storken",
    "address": "Stora Torget 3, 75320 Uppsala",
    "city": "Uppsala",
    "fetched_at": "2026-04-19T02:07:26.223Z",
    "latitude": 59.8582004,
    "longitude": 17.6389802
  },
  {
    "title": "Mobility training & Tennis🎾",
    "startDate": "2026-04-24T18:30:00+02:00",
    "url": "https://www.meetup.com/uppsala-tennis-mobility-trainings-group/events/314159561/",
    "source": "meetup.com",
    "venue": "UTK - Uppsala Tennis Klubb",
    "address": "Edith Södergrans gata 7",
    "city": "Uppsala",
    "fetched_at": "2026-04-19T02:07:26.223Z",
    "latitude": 59.8836959,
    "longitude": 17.663896
  },
  {
    "title": "UPPSALA - Paint & Sip | Sans Studio x Grandpa",
    "startDate": "2026-04-24T19:30:00+02:00",
    "url": "https://www.meetup.com/sans-studio-paint-and-sip/events/314278448/",
    "source": "meetup.com",
    "venue": "Grandpa Uppsala",
    "address": "Svartbäcksgatan 1B",
    "city": "Uppsala",
    "fetched_at": "2026-04-19T02:07:26.223Z",
    "latitude": 59.8591065,
    "longitude": 17.6383471
  },
  {
    "title": "Uppsala.js #44 - Daily Agent Coding",
    "startDate": "2026-04-28T17:30:00+02:00",
    "url": "https://www.meetup.com/uppsalajs/events/314210222/",
    "source": "meetup.com",
    "venue": "Codevum",
    "address": "Torgny Segerstedts Allé 87",
    "city": "Uppsala",
    "fetched_at": "2026-04-19T02:07:26.223Z",
    "latitude": 59.8345247,
    "longitude": 17.6338718
  },
  {
    "title": "#46 Urban Sketching - Bror Hjorths Hus",
    "startDate": "2026-05-02T13:00:00+02:00",
    "url": "https://www.meetup.com/uppsala-social/events/314085398/",
    "source": "meetup.com",
    "venue": "Bror Hjorths Hus",
    "address": "Norbyvägen 26",
    "city": "Uppsala",
    "fetched_at": "2026-04-19T02:07:26.223Z",
    "latitude": 59.8492776,
    "longitude": 17.6198763
  }
]