[
  {
    "title": "Paint & Potluck in Hospitalträdgården Water Reserve",
    "startDate": "2026-04-26T14:00:00+02:00",
    "url": "https://www.meetup.com/uppsala-socratic-sessions/events/314458623/",
    "source": "meetup.com",
    "venue": "Hospitalsträdgårdens dagvattenpark",
    "address": "Hospitalsträdgården",
    "city": "Uppsala",
    "fetched_at": "2026-04-26T02:08:48.692Z",
    "latitude": 59.8356636,
    "longitude": 17.6559026
  },
  {
    "title": "Build with 46elks",
    "startDate": "2026-04-27T17:30:00+02:00",
    "url": "https://www.meetup.com/friends-of-46elks-uppsala/events/314398066/",
    "source": "meetup.com",
    "venue": "Magasin X",
    "address": "Sidenvävargatan 17",
    "city": "Uppsala",
    "fetched_at": "2026-04-26T02:08:48.692Z",
    "latitude": 59.8487686,
    "longitude": 17.6524889
  },
  {
    "title": "Uppsala.js #44 - Daily Agent Coding",
    "startDate": "2026-04-28T17:30:00+02:00",
    "url": "https://www.meetup.com/uppsalajs/events/314210222/",
    "source": "meetup.com",
    "venue": "Codevum",
    "address": "Torgny Segerstedts Allé 87",
    "city": "Uppsala",
    "fetched_at": "2026-04-26T02:08:48.692Z",
    "latitude": 59.8345247,
    "longitude": 17.6338718
  },
  {
    "title": "So you think you can Karaoke",
    "startDate": "2026-05-01T21:00:00+02:00",
    "url": "https://www.meetup.com/1-immigrants-society/events/314368662/",
    "source": "meetup.com",
    "venue": "Etage Bar",
    "address": "Dragarbrunnsgatan 39, 753 20 Uppsala, Sweden",
    "city": "Uppsala",
    "fetched_at": "2026-04-26T02:08:48.692Z",
    "latitude": 59.858984,
    "longitude": 17.6405754
  },
  {
    "title": "#46 Urban Sketching - Bror Hjorths Hus",
    "startDate": "2026-05-02T13:00:00+02:00",
    "url": "https://www.meetup.com/uppsala-social/events/314085398/",
    "source": "meetup.com",
    "venue": "Bror Hjorths Hus",
    "address": "Norbyvägen 26",
    "city": "Uppsala",
    "fetched_at": "2026-04-26T02:08:48.693Z",
    "latitude": 59.8492776,
    "longitude": 17.6198763
  },
  {
    "title": "Mindful Art Class - Watercolour birds",
    "startDate": "2026-05-03T01:00:00+02:00",
    "url": "https://www.meetup.com/mindful-art-class/events/314397531/",
    "source": "meetup.com",
    "venue": "Inner Art Ateljé",
    "address": "Ulleråkersvägen 34",
    "city": "Uppsala",
    "fetched_at": "2026-04-26T02:08:48.693Z",
    "latitude": 59.8282548,
    "longitude": 17.6463868
  },
  {
    "title": "Drivhuset Breakfast Club",
    "startDate": "2026-05-06T08:15:00+02:00",
    "url": "https://www.meetup.com/drivhuset-uppsala-entrepreneurship/events/314026547/",
    "source": "meetup.com",
    "venue": "Sidenvävargatan 17",
    "address": "Sidenvävargatan 17",
    "city": "Uppsala",
    "fetched_at": "2026-04-26T02:08:48.693Z",
    "latitude": 59.8565705,
    "longitude": 17.6495256
  },
  {
    "title": "Socratic Cafe @ Kafferummet Storken",
    "startDate": "2026-05-07T18:00:00+02:00",
    "url": "https://www.meetup.com/uppsala-socratic-sessions/events/314335240/",
    "source": "meetup.com",
    "venue": "Kafferummet Storken",
    "address": "Stora Torget 3, 75320 Uppsala",
    "city": "Uppsala",
    "fetched_at": "2026-04-26T02:08:48.693Z",
    "latitude": 59.8582004,
    "longitude": 17.6389802
  },
  {
    "title": "Padel&Buziness",
    "startDate": "2026-05-08T07:00:00+02:00",
    "url": "https://www.meetup.com/friends-of-46elks-uppsala/events/313080296/",
    "source": "meetup.com",
    "venue": "Padel Uppsala - UTK Hallen",
    "address": "Edith Södergrans gata 7",
    "city": "Uppsala",
    "fetched_at": "2026-04-26T02:08:48.693Z",
    "latitude": 59.8836959,
    "longitude": 17.663896
  },
  {
    "title": "Mindful Art Class - Paint and Sip Uppsala cathedral!",
    "startDate": "2026-05-08T19:30:00+02:00",
    "url": "https://www.meetup.com/mindful-art-class/events/314397449/",
    "source": "meetup.com",
    "venue": "Inner Art Ateljé",
    "address": "Ulleråkersvägen 34",
    "city": "Uppsala",
    "fetched_at": "2026-04-26T02:08:48.693Z",
    "latitude": 59.8282548,
    "longitude": 17.6463868
  },
  {
    "title": "Mindful Art Class - Sculpt your own Paint Palette! 🎨🌿✨",
    "startDate": "2026-05-09T11:00:00+02:00",
    "url": "https://www.meetup.com/mindful-art-class/events/314055097/",
    "source": "meetup.com",
    "venue": "Inner Art Ateljé",
    "address": "Ulleråkersvägen 34",
    "city": "Uppsala",
    "fetched_at": "2026-04-26T02:08:48.693Z",
    "latitude": 59.8282548,
    "longitude": 17.6463868
  }
]