[
  {
    "title": "Socratic Cafe @ Kafferummet Storken",
    "startDate": "2026-04-09T18:00:00+02:00",
    "url": "https://www.meetup.com/uppsala-socratic-sessions/events/313776497/",
    "source": "meetup.com",
    "venue": "Kafferummet Storken",
    "address": "Stora Torget 3, 75320 Uppsala",
    "city": "Uppsala",
    "fetched_at": "2026-04-09T01:47:19.461Z",
    "latitude": 59.8582004,
    "longitude": 17.6389802
  },
  {
    "title": "#44 Urban Sketching -  Day Trip to Salsta Slott",
    "startDate": "2026-04-12T09:45:00+02:00",
    "url": "https://www.meetup.com/uppsala-social/events/313522453/",
    "source": "meetup.com",
    "venue": "Uppsala Centralstation",
    "address": "Uppsala Centralstation, läge C4",
    "city": "Uppsala",
    "fetched_at": "2026-04-09T01:47:19.461Z",
    "latitude": 59.8582098,
    "longitude": 17.6465835
  },
  {
    "title": "Mindful Art Class - Charcoal drawing (with guest teacher!)! 🎨🌿✨",
    "startDate": "2026-04-12T13:00:00+02:00",
    "url": "https://www.meetup.com/mindful-art-class/events/313943605/",
    "source": "meetup.com",
    "venue": "Inner Art Ateljé",
    "address": "Ulleråkersvägen 34",
    "city": "Uppsala",
    "fetched_at": "2026-04-09T01:47:19.461Z",
    "latitude": 59.8282548,
    "longitude": 17.6463868
  },
  {
    "title": "Sunday Badminton",
    "startDate": "2026-04-12T16:00:00+02:00",
    "url": "https://www.meetup.com/uppsala-social/events/313911321/",
    "source": "meetup.com",
    "venue": "Fyrisfjädern Badmintonklubb",
    "address": "Badmintonstigen 1",
    "city": "Uppsala",
    "fetched_at": "2026-04-09T01:47:19.461Z",
    "latitude": 59.8721729,
    "longitude": 17.6208429
  },
  {
    "title": "Co-Working dag 👨🏼‍💻👩🏽‍💻",
    "startDate": "2026-04-14T09:00:00+02:00",
    "url": "https://www.meetup.com/friends-of-46elks-uppsala/events/313941833/",
    "source": "meetup.com",
    "venue": "IT-HUSET Uppsala",
    "address": "Vaksalagatan 3",
    "city": "Uppsala",
    "fetched_at": "2026-04-09T01:47:19.461Z",
    "latitude": 59.868543,
    "longitude": 17.6604173
  },
  {
    "title": "Padel&Buziness",
    "startDate": "2026-04-17T07:00:00+02:00",
    "url": "https://www.meetup.com/friends-of-46elks-uppsala/events/313080284/",
    "source": "meetup.com",
    "venue": "Padel Uppsala - UTK Hallen",
    "address": "Edith Södergrans gata 7",
    "city": "Uppsala",
    "fetched_at": "2026-04-09T01:47:19.461Z",
    "latitude": 59.8836959,
    "longitude": 17.663896
  },
  {
    "title": "Mindful Art Class - Soft Pastel Dreamy Landscape ",
    "startDate": "2026-04-18T13:00:00+02:00",
    "url": "https://www.meetup.com/mindful-art-class/events/314055843/",
    "source": "meetup.com",
    "venue": "Inner Art Ateljé",
    "address": "Ulleråkersvägen 34",
    "city": "Uppsala",
    "fetched_at": "2026-04-09T01:47:19.461Z",
    "latitude": 59.8282548,
    "longitude": 17.6463868
  },
  {
    "title": "Mobility training & Tennis🎾",
    "startDate": "2026-04-18T17:00:00+02:00",
    "url": "https://www.meetup.com/uppsala-tennis-mobility-trainings-group/events/314143440/",
    "source": "meetup.com",
    "venue": "UTK - Uppsala Tennis Klubb",
    "address": "Edith Södergrans gata 7",
    "city": "Uppsala",
    "fetched_at": "2026-04-09T01:47:19.461Z",
    "latitude": 59.8836959,
    "longitude": 17.663896
  },
  {
    "title": "Agents: From ideas to Deployment",
    "startDate": "2026-04-21T17:30:00+02:00",
    "url": "https://www.meetup.com/uppsala-tech-meetup/events/313818442/",
    "source": "meetup.com",
    "venue": "Omegapoint",
    "address": "Kungsängsgatan 14",
    "city": "Uppsala",
    "fetched_at": "2026-04-09T01:47:19.461Z",
    "latitude": 59.8571282,
    "longitude": 17.6417146
  },
  {
    "title": "Mindful Art Class - Sculpt your own Paint Palette! (with guest teacher!)! 🎨🌿✨",
    "startDate": "2026-04-22T16:30:00+02:00",
    "url": "https://www.meetup.com/mindful-art-class/events/314055097/",
    "source": "meetup.com",
    "venue": "Inner Art Ateljé",
    "address": "Ulleråkersvägen 34",
    "city": "Uppsala",
    "fetched_at": "2026-04-09T01:47:19.461Z",
    "latitude": 59.8282548,
    "longitude": 17.6463868
  },
  {
    "title": "Mobility training & Tennis🎾",
    "startDate": "2026-04-24T18:30:00+02:00",
    "url": "https://www.meetup.com/uppsala-tennis-mobility-trainings-group/events/314159561/",
    "source": "meetup.com",
    "venue": "UTK - Uppsala Tennis Klubb",
    "address": "Edith Södergrans gata 7",
    "city": "Uppsala",
    "fetched_at": "2026-04-09T01:47:19.461Z",
    "latitude": 59.8836959,
    "longitude": 17.663896
  }
]