[
  {
    "title": "Drivhuset Breakfast Club",
    "startDate": "2026-05-06T08:15:00+02:00",
    "url": "https://www.meetup.com/drivhuset-uppsala-entrepreneurship/events/314026547/",
    "source": "meetup.com",
    "venue": "Sidenvävargatan 17",
    "address": "Sidenvävargatan 17",
    "city": "Uppsala",
    "fetched_at": "2026-05-03T02:22:10.893Z",
    "latitude": 59.8565705,
    "longitude": 17.6495256
  },
  {
    "title": "Socratic Cafe @ Kafferummet Storken",
    "startDate": "2026-05-07T18:00:00+02:00",
    "url": "https://www.meetup.com/uppsala-socratic-sessions/events/314335240/",
    "source": "meetup.com",
    "venue": "Kafferummet Storken",
    "address": "Stora Torget 3, 75320 Uppsala",
    "city": "Uppsala",
    "fetched_at": "2026-05-03T02:22:10.893Z",
    "latitude": 59.8582004,
    "longitude": 17.6389802
  },
  {
    "title": "Padel&Buziness",
    "startDate": "2026-05-08T07:00:00+02:00",
    "url": "https://www.meetup.com/friends-of-46elks-uppsala/events/313080296/",
    "source": "meetup.com",
    "venue": "Padel Uppsala - UTK Hallen",
    "address": "Edith Södergrans gata 7",
    "city": "Uppsala",
    "fetched_at": "2026-05-03T02:22:10.893Z",
    "latitude": 59.8836959,
    "longitude": 17.663896
  },
  {
    "title": "Mindful Art Class - Paint and Sip Uppsala cathedral!",
    "startDate": "2026-05-08T19:30:00+02:00",
    "url": "https://www.meetup.com/mindful-art-class/events/314397449/",
    "source": "meetup.com",
    "venue": "Inner Art Ateljé",
    "address": "Ulleråkersvägen 34",
    "city": "Uppsala",
    "fetched_at": "2026-05-03T02:22:10.893Z",
    "latitude": 59.8282548,
    "longitude": 17.6463868
  },
  {
    "title": "Mindful Art Class - Sculpt your own Paint Palette! 🎨🌿✨",
    "startDate": "2026-05-09T11:00:00+02:00",
    "url": "https://www.meetup.com/mindful-art-class/events/314055097/",
    "source": "meetup.com",
    "venue": "Inner Art Ateljé",
    "address": "Ulleråkersvägen 34",
    "city": "Uppsala",
    "fetched_at": "2026-05-03T02:22:10.893Z",
    "latitude": 59.8282548,
    "longitude": 17.6463868
  },
  {
    "title": "#47 Urban Sketching -  Day Trip to Krusenberg Herrgård",
    "startDate": "2026-05-16T11:00:00+02:00",
    "url": "https://www.meetup.com/uppsala-social/events/314088329/",
    "source": "meetup.com",
    "venue": "Uppsala Centralstation",
    "address": "Uppsala Centralstation, läge C4",
    "city": "Uppsala",
    "fetched_at": "2026-05-03T02:22:10.893Z",
    "latitude": 59.8582098,
    "longitude": 17.6465835
  },
  {
    "title": "Svenskasamtal",
    "startDate": "2026-05-16T12:00:00+02:00",
    "url": "https://www.meetup.com/intercambio2/events/313648030/",
    "source": "meetup.com",
    "venue": "Konditori Fågelsången",
    "address": "Munkgatan 3",
    "city": "Uppsala",
    "fetched_at": "2026-05-03T02:22:10.893Z",
    "latitude": 59.8546305,
    "longitude": 17.6394577
  },
  {
    "title": "French Conversation",
    "startDate": "2026-05-16T13:30:00+02:00",
    "url": "https://www.meetup.com/intercambio2/events/314137735/",
    "source": "meetup.com",
    "venue": "Konditori Fågelsången",
    "address": "Munkgatan 3",
    "city": "Uppsala",
    "fetched_at": "2026-05-03T02:22:10.893Z",
    "latitude": 59.8546305,
    "longitude": 17.6394577
  },
  {
    "title": "Sunday Coffee",
    "startDate": "2026-05-17T12:00:00+02:00",
    "url": "https://www.meetup.com/uppsala-social/events/314137749/",
    "source": "meetup.com",
    "venue": "Konditori Fågelsången",
    "address": "Munkgatan 3, C",
    "city": "Uppsala",
    "fetched_at": "2026-05-03T02:22:10.893Z",
    "latitude": 59.8546305,
    "longitude": 17.6394577
  },
  {
    "title": "English Conversation",
    "startDate": "2026-05-17T12:00:00+02:00",
    "url": "https://www.meetup.com/intercambio2/events/314137740/",
    "source": "meetup.com",
    "venue": "Konditori Fågelsången",
    "address": "Munkgatan 3",
    "city": "Uppsala",
    "fetched_at": "2026-05-03T02:22:10.893Z",
    "latitude": 59.8546305,
    "longitude": 17.6394577
  }
]